{
"type": "FeatureCollection",
"name": "fodors_geocoded_2010",
"crs": { "type": "name", "properties": { "name": "urn:ogc:def:crs:OGC:1.3:CRS84" } },
"features": [
{ "type": "Feature", "properties": { "Name": "7 on Fulton", "Type": "Restaurant", "Address": "701 Convention Center Blvd.", "Latitude": 29.945742, "Longitude": -90.064575, "2015": null, "2010": "Yes", "2000": null, "1990": null, "Notes": null }, "geometry": { "type": "Point", "coordinates": [ -90.064575, 29.945742 ] } },
{ "type": "Feature", "properties": { "Name": "528 on Fulton", "Type": "Music Venue", "Address": "528 Fulton St.", "Latitude": 29.947916, "Longitude": -90.065285, "2015": null, "2010": "Yes", "2000": null, "1990": null, "Notes": null }, "geometry": { "type": "Point", "coordinates": [ -90.065285, 29.947916 ] } },
{ "type": "Feature", "properties": { "Name": "Acme Oyster House", "Type": "Restaurant", "Address": "724 Iberville St.", "Latitude": 29.954227, "Longitude": -90.068436, "2015": "Yes", "2010": "Yes", "2000": "Yes", "1990": "Yes", "Notes": null }, "geometry": { "type": "Point", "coordinates": [ -90.068436, 29.954227 ] } },
{ "type": "Feature", "properties": { "Name": "Angelo Broccato's", "Type": "Bakery", "Address": "214 N. Carrollton St. ", "Latitude": 29.975578, "Longitude": -90.09933, "2015": "Yes", "2010": "Yes", "2000": "Yes", "1990": "Yes", "Notes": null }, "geometry": { "type": "Point", "coordinates": [ -90.09933, 29.975578 ] } },
{ "type": "Feature", "properties": { "Name": "Antoine's", "Type": "Restaurant", "Address": "713 St. Louis St.", "Latitude": 29.956526, "Longitude": -90.06629, "2015": "Yes", "2010": "Yes", "2000": null, "1990": "Yes", "Notes": null }, "geometry": { "type": "Point", "coordinates": [ -90.06629, 29.956526 ] } },
{ "type": "Feature", "properties": { "Name": "Arnaud's", "Type": "Restaurant", "Address": "813 Bienville St.", "Latitude": 29.95561, "Longitude": -90.06857, "2015": "Yes", "2010": "Yes", "2000": "Yes", "1990": "Yes", "Notes": null }, "geometry": { "type": "Point", "coordinates": [ -90.06857, 29.95561 ] } },
{ "type": "Feature", "properties": { "Name": "August", "Type": "Restaurant", "Address": "301 Tchoupitoulas St.", "Latitude": 29.950064, "Longitude": -90.06654, "2015": "Yes", "2010": "Yes", "2000": null, "1990": null, "Notes": null }, "geometry": { "type": "Point", "coordinates": [ -90.06654, 29.950064 ] } },
{ "type": "Feature", "properties": { "Name": "Bacchanal Fine Wine & Spirits", "Type": "Bar", "Address": "600 Poland Ave", "Latitude": 29.959665, "Longitude": -90.0331, "2015": "Yes", "2010": "Yes", "2000": null, "1990": null, "Notes": null }, "geometry": { "type": "Point", "coordinates": [ -90.0331, 29.959665 ] } },
{ "type": "Feature", "properties": { "Name": "Banks Street Bar and Grill", "Type": "Music Venue", "Address": "4401 Banks St.", "Latitude": 29.97439, "Longitude": -90.106476, "2015": "Yes", "2010": "Yes", "2000": null, "1990": null, "Notes": null }, "geometry": { "type": "Point", "coordinates": [ -90.106476, 29.97439 ] } },
{ "type": "Feature", "properties": { "Name": "Bar Tonique", "Type": "Bar", "Address": "820 N. Rampart St.", "Latitude": 29.961527, "Longitude": -90.06742, "2015": "Yes", "2010": "Yes", "2000": null, "1990": null, "Notes": null }, "geometry": { "type": "Point", "coordinates": [ -90.06742, 29.961527 ] } },
{ "type": "Feature", "properties": { "Name": "Basil Leaf", "Type": "Restaurant", "Address": "1438 S. Carrollton Ave.", "Latitude": 29.94909, "Longitude": -90.127975, "2015": null, "2010": "Yes", "2000": null, "1990": null, "Notes": null }, "geometry": { "type": "Point", "coordinates": [ -90.127975, 29.94909 ] } },
{ "type": "Feature", "properties": { "Name": "Bayona", "Type": "Restaurant", "Address": "430 Dauphine St.", "Latitude": 29.957119, "Longitude": -90.06838, "2015": "Yes", "2010": "Yes", "2000": "Yes", "1990": null, "Notes": null }, "geometry": { "type": "Point", "coordinates": [ -90.06838, 29.957119 ] } },
{ "type": "Feature", "properties": { "Name": "Bennachin", "Type": "Restaurant", "Address": "1212 Royal St.", "Latitude": 29.962122, "Longitude": -90.061035, "2015": null, "2010": "Yes", "2000": null, "1990": null, "Notes": null }, "geometry": { "type": "Point", "coordinates": [ -90.061035, 29.962122 ] } },
{ "type": "Feature", "properties": { "Name": "Bistro at Maison de Ville", "Type": "Restaurant", "Address": "727 Toulouse St.", "Latitude": 29.957405, "Longitude": -90.06571, "2015": null, "2010": "Yes", "2000": "Yes", "1990": null, "Notes": null }, "geometry": { "type": "Point", "coordinates": [ -90.06571, 29.957405 ] } },
{ "type": "Feature", "properties": { "Name": "Bombay Club", "Type": "Bar", "Address": "830 Conti St.", "Latitude": 29.95646, "Longitude": -90.06802, "2015": "Yes", "2010": "Yes", "2000": null, "1990": null, "Notes": null }, "geometry": { "type": "Point", "coordinates": [ -90.06802, 29.95646 ] } },
{ "type": "Feature", "properties": { "Name": "Bon Ton Cafe", "Type": "Restaurant", "Address": "401 Magazine St.", "Latitude": 29.94957, "Longitude": -90.06791, "2015": "Yes", "2010": "Yes", "2000": "Yes", "1990": null, "Notes": null }, "geometry": { "type": "Point", "coordinates": [ -90.06791, 29.94957 ] } },
{ "type": "Feature", "properties": { "Name": "Bourbon House", "Type": "Restaurant", "Address": "144 Bourbon St.", "Latitude": 29.95424, "Longitude": -90.0695, "2015": "Yes", "2010": "Yes", "2000": null, "1990": null, "Notes": null }, "geometry": { "type": "Point", "coordinates": [ -90.0695, 29.95424 ] } },
{ "type": "Feature", "properties": { "Name": "Bourbon Pub", "Type": "Bar", "Address": "801 Bourbon St", "Latitude": 29.959547, "Longitude": -90.0648, "2015": "Yes", "2010": "Yes", "2000": "Yes", "1990": null, "Notes": "2000, page 122: \"Many of the gay bars are on or near Rampart, St. Ann and Dumaine streets in the vicinity of Armstrong Park. The neighborhoods around the park are not safe, so be very careful, and don't go into the park at night unless there's a major event.\"" }, "geometry": { "type": "Point", "coordinates": [ -90.0648, 29.959547 ] } },
{ "type": "Feature", "properties": { "Name": "Brennan's", "Type": "Restaurant", "Address": "417 Royal St", "Latitude": 29.955824, "Longitude": -90.06667, "2015": null, "2010": "Yes", "2000": "Yes", "1990": "Yes", "Notes": null }, "geometry": { "type": "Point", "coordinates": [ -90.06667, 29.955824 ] } },
{ "type": "Feature", "properties": { "Name": "Bridge Lounge", "Type": "Bar", "Address": "1201 Magazine St.", "Latitude": 29.939226, "Longitude": -90.07102, "2015": "Yes", "2010": "Yes", "2000": null, "1990": null, "Notes": null }, "geometry": { "type": "Point", "coordinates": [ -90.07102, 29.939226 ] } },
{ "type": "Feature", "properties": { "Name": "Brigsten's", "Type": "Restaurant", "Address": "723 Dante St.", "Latitude": 29.945625, "Longitude": -90.13492, "2015": "Yes", "2010": "Yes", "2000": "Yes", "1990": "Yes", "Notes": null }, "geometry": { "type": "Point", "coordinates": [ -90.13492, 29.945625 ] } },
{ "type": "Feature", "properties": { "Name": "Broussard's", "Type": "Restaurant", "Address": "819 Conti St.", "Latitude": 29.956406, "Longitude": -90.067924, "2015": "Yes", "2010": "Yes", "2000": "Yes", "1990": "Yes", "Notes": null }, "geometry": { "type": "Point", "coordinates": [ -90.067924, 29.956406 ] } },
{ "type": "Feature", "properties": { "Name": "Cafe Degas", "Type": "Restaurant", "Address": "3127 Esplanade Ave", "Latitude": 29.98034, "Longitude": -90.08446, "2015": "Yes", "2010": "Yes", "2000": null, "1990": "Yes", "Notes": null }, "geometry": { "type": "Point", "coordinates": [ -90.08446, 29.98034 ] } },
{ "type": "Feature", "properties": { "Name": "Cafe du Monde", "Type": "Coffee Shop", "Address": "800 Decatur St.", "Latitude": 29.957596, "Longitude": -90.06199, "2015": "Yes", "2010": "Yes", "2000": "Yes", "1990": "Yes", "Notes": null }, "geometry": { "type": "Point", "coordinates": [ -90.06199, 29.957596 ] } },
{ "type": "Feature", "properties": { "Name": "Cafe Lafitte in Exile", "Type": "Bar", "Address": "901 Bourbon St.", "Latitude": 29.960333, "Longitude": -90.06412, "2015": "Yes", "2010": "Yes", "2000": "Yes", "1990": null, "Notes": null }, "geometry": { "type": "Point", "coordinates": [ -90.06412, 29.960333 ] } },
{ "type": "Feature", "properties": { "Name": "Cafe Maspero", "Type": "Restaurant", "Address": "601 Decatur St.", "Latitude": 29.955936, "Longitude": -90.063446, "2015": null, "2010": "Yes", "2000": "Yes", "1990": null, "Notes": null }, "geometry": { "type": "Point", "coordinates": [ -90.063446, 29.955936 ] } },
{ "type": "Feature", "properties": { "Name": "Cafe Rose Nicaud", "Type": "Coffee Shop", "Address": "632 Frenchmen St.", "Latitude": 29.963896, "Longitude": -90.05777, "2015": null, "2010": "Yes", "2000": null, "1990": null, "Notes": null }, "geometry": { "type": "Point", "coordinates": [ -90.05777, 29.963896 ] } },
{ "type": "Feature", "properties": { "Name": "Carousel Bar", "Type": "Bar", "Address": "214 Royal St.", "Latitude": 29.954206, "Longitude": -90.06804, "2015": "Yes", "2010": "Yes", "2000": null, "1990": null, "Notes": null }, "geometry": { "type": "Point", "coordinates": [ -90.06804, 29.954206 ] } },
{ "type": "Feature", "properties": { "Name": "Carrollton Station", "Type": "Music Venue", "Address": "8140 Willow St.", "Latitude": 29.949081, "Longitude": -90.12867, "2015": "Yes", "2010": "Yes", "2000": "Yes", "1990": null, "Notes": null }, "geometry": { "type": "Point", "coordinates": [ -90.12867, 29.949081 ] } },
{ "type": "Feature", "properties": { "Name": "Casamento's", "Type": "Restaurant", "Address": "4330 Magazine St.", "Latitude": 29.920866, "Longitude": -90.10057, "2015": "Yes", "2010": "Yes", "2000": "Yes", "1990": "Yes", "Notes": null }, "geometry": { "type": "Point", "coordinates": [ -90.10057, 29.920866 ] } },
{ "type": "Feature", "properties": { "Name": "Cat's Meow", "Type": "Bar", "Address": "701 Bourbon St.", "Latitude": 29.958628, "Longitude": -90.065636, "2015": "Yes", "2010": "Yes", "2000": "Yes", "1990": null, "Notes": null }, "geometry": { "type": "Point", "coordinates": [ -90.065636, 29.958628 ] } },
{ "type": "Feature", "properties": { "Name": "CC's Coffeehouse", "Type": "Coffee Shop", "Address": "941 Royal St.", "Latitude": 29.959976, "Longitude": -90.062965, "2015": null, "2010": "Yes", "2000": null, "1990": null, "Notes": null }, "geometry": { "type": "Point", "coordinates": [ -90.062965, 29.959976 ] } },
{ "type": "Feature", "properties": { "Name": "CC's Coffeehouse", "Type": "Coffee Shop", "Address": "2800 Esplanade Ave.", "Latitude": 29.977615, "Longitude": -90.080536, "2015": null, "2010": "Yes", "2000": null, "1990": null, "Notes": null }, "geometry": { "type": "Point", "coordinates": [ -90.080536, 29.977615 ] } },
{ "type": "Feature", "properties": { "Name": "CC's Coffeehouse", "Type": "Coffee Shop", "Address": "900 Jefferson Ave.", "Latitude": 29.921007, "Longitude": -90.11502, "2015": null, "2010": "Yes", "2000": null, "1990": null, "Notes": null }, "geometry": { "type": "Point", "coordinates": [ -90.11502, 29.921007 ] } },
{ "type": "Feature", "properties": { "Name": "Central Grocery", "Type": "Corner Store\/Grocery", "Address": "923 Decatur St.", "Latitude": 29.958685, "Longitude": -90.06105, "2015": "Yes", "2010": "Yes", "2000": "Yes", "1990": "Yes", "Notes": null }, "geometry": { "type": "Point", "coordinates": [ -90.06105, 29.958685 ] } },
{ "type": "Feature", "properties": { "Name": "Chart Room", "Type": "Bar", "Address": "300 Chartres St.", "Latitude": 29.954311, "Longitude": -90.06653, "2015": "Yes", "2010": "Yes", "2000": null, "1990": null, "Notes": null }, "geometry": { "type": "Point", "coordinates": [ -90.06653, 29.954311 ] } },
{ "type": "Feature", "properties": { "Name": "Checkpoint Charlie's", "Type": "Music Venue", "Address": "501 Esplanade Ave.", "Latitude": 29.962172, "Longitude": -90.05803, "2015": "Yes", "2010": "Yes", "2000": "Yes", "1990": null, "Notes": "2000: \"The 1993 film The Pelican Brief included several scenes shot here.\"" }, "geometry": { "type": "Point", "coordinates": [ -90.05803, 29.962172 ] } },
{ "type": "Feature", "properties": { "Name": "Chris Owens Club", "Type": "Bar", "Address": "500 Bourbon St.", "Latitude": 29.957077, "Longitude": -90.066986, "2015": null, "2010": "Yes", "2000": "Yes", "1990": "Yes", "Notes": null }, "geometry": { "type": "Point", "coordinates": [ -90.066986, 29.957077 ] } },
{ "type": "Feature", "properties": { "Name": "Circle Bar", "Type": "Music Venue", "Address": "1032 St. Charles Ave.", "Latitude": 29.942987, "Longitude": -90.07212, "2015": "Yes", "2010": "Yes", "2000": null, "1990": null, "Notes": null }, "geometry": { "type": "Point", "coordinates": [ -90.07212, 29.942987 ] } },
{ "type": "Feature", "properties": { "Name": "Clancy's", "Type": "Restaurant", "Address": "6100 Annunciation St.", "Latitude": 29.919125, "Longitude": -90.12505, "2015": "Yes", "2010": "Yes", "2000": "Yes", "1990": "Yes", "Notes": null }, "geometry": { "type": "Point", "coordinates": [ -90.12505, 29.919125 ] } },
{ "type": "Feature", "properties": { "Name": "Clever Wine Bar", "Type": "Bar", "Address": "3700 Orleans Ave.", "Latitude": 29.976786, "Longitude": -90.09194, "2015": null, "2010": "Yes", "2000": null, "1990": null, "Notes": null }, "geometry": { "type": "Point", "coordinates": [ -90.09194, 29.976786 ] } },
{ "type": "Feature", "properties": { "Name": "Club Ampersand", "Type": "Bar", "Address": "1100 Tulane Ave", "Latitude": 29.954212, "Longitude": -90.07412, "2015": "Yes", "2010": "Yes", "2000": null, "1990": null, "Notes": null }, "geometry": { "type": "Point", "coordinates": [ -90.07412, 29.954212 ] } },
{ "type": "Feature", "properties": { "Name": "Cochon", "Type": "Restaurant", "Address": "930 Tchoupitoulas St.", "Latitude": 29.942482, "Longitude": -90.067444, "2015": "Yes", "2010": "Yes", "2000": null, "1990": null, "Notes": null }, "geometry": { "type": "Point", "coordinates": [ -90.067444, 29.942482 ] } },
{ "type": "Feature", "properties": { "Name": "Columns Hotel's Victorian Lounge Bar", "Type": "Bar", "Address": "3811 St. Charles Ave.", "Latitude": 29.927063, "Longitude": -90.0957, "2015": "Yes", "2010": "Yes", "2000": "Yes", "1990": null, "Notes": null }, "geometry": { "type": "Point", "coordinates": [ -90.0957, 29.927063 ] } },
{ "type": "Feature", "properties": { "Name": "Commander's Palace", "Type": "Restaurant", "Address": "1403 Washington Ave.", "Latitude": 29.928736, "Longitude": -90.084335, "2015": "Yes", "2010": "Yes", "2000": "Yes", "1990": "Yes", "Notes": null }, "geometry": { "type": "Point", "coordinates": [ -90.084335, 29.928736 ] } },
{ "type": "Feature", "properties": { "Name": "Corner Pocket", "Type": "Bar", "Address": "940 St. Louis St.", "Latitude": 29.95787, "Longitude": -90.06834, "2015": "Yes", "2010": "Yes", "2000": null, "1990": null, "Notes": null }, "geometry": { "type": "Point", "coordinates": [ -90.06834, 29.95787 ] } },
{ "type": "Feature", "properties": { "Name": "Cosimo's", "Type": "Bar", "Address": "1201 Burgundy St.", "Latitude": 29.963917, "Longitude": -90.06381, "2015": "Yes", "2010": "Yes", "2000": null, "1990": null, "Notes": null }, "geometry": { "type": "Point", "coordinates": [ -90.06381, 29.963917 ] } },
{ "type": "Feature", "properties": { "Name": "Country Club New Orleans", "Type": "Bar", "Address": "634 Louisa St.", "Latitude": 29.96248, "Longitude": -90.04389, "2015": "Yes", "2010": "Yes", "2000": null, "1990": null, "Notes": null }, "geometry": { "type": "Point", "coordinates": [ -90.04389, 29.96248 ] } },
{ "type": "Feature", "properties": { "Name": "Crescent City Brewhouse", "Type": "Bar", "Address": "527 Decatur St.", "Latitude": 29.955366, "Longitude": -90.064, "2015": "Yes", "2010": "Yes", "2000": null, "1990": null, "Notes": null }, "geometry": { "type": "Point", "coordinates": [ -90.064, 29.955366 ] } },
{ "type": "Feature", "properties": { "Name": "Croissant d'or Pattiserie", "Type": "Coffee Shop", "Address": "617 Ursulines St.", "Latitude": 29.960754, "Longitude": -90.06116, "2015": "Yes", "2010": "Yes", "2000": "Yes", "1990": null, "Notes": null }, "geometry": { "type": "Point", "coordinates": [ -90.06116, 29.960754 ] } },
{ "type": "Feature", "properties": { "Name": "Cure", "Type": "Bar", "Address": "4905 Freret St.", "Latitude": 29.934921, "Longitude": -90.10739, "2015": "Yes", "2010": "Yes", "2000": null, "1990": null, "Notes": null }, "geometry": { "type": "Point", "coordinates": [ -90.10739, 29.934921 ] } },
{ "type": "Feature", "properties": { "Name": "Cuvee", "Type": "Restuarant", "Address": "322 Magazine St.", "Latitude": 29.950335, "Longitude": -90.06765, "2015": null, "2010": "Yes", "2000": null, "1990": null, "Notes": null }, "geometry": { "type": "Point", "coordinates": [ -90.06765, 29.950335 ] } },
{ "type": "Feature", "properties": { "Name": "Dante's Kitchen", "Type": "Restaurant", "Address": "736 Dante St.", "Latitude": 29.945684, "Longitude": -90.134865, "2015": "Yes", "2010": "Yes", "2000": null, "1990": null, "Notes": null }, "geometry": { "type": "Point", "coordinates": [ -90.134865, 29.945684 ] } },
{ "type": "Feature", "properties": { "Name": "dba", "Type": "Music Venue", "Address": "618 Frenchmen St.", "Latitude": 29.963778, "Longitude": -90.05776, "2015": "Yes", "2010": "Yes", "2000": null, "1990": null, "Notes": null }, "geometry": { "type": "Point", "coordinates": [ -90.05776, 29.963778 ] } },
{ "type": "Feature", "properties": { "Name": "Delachaise", "Type": "Bar", "Address": "3442 St. Charles St.", "Latitude": 29.92775, "Longitude": -90.09254, "2015": "Yes", "2010": "Yes", "2000": null, "1990": null, "Notes": null }, "geometry": { "type": "Point", "coordinates": [ -90.09254, 29.92775 ] } },
{ "type": "Feature", "properties": { "Name": "Dickie Brennan's Steakhouse", "Type": "Restaurant", "Address": "716 Iberville St.", "Latitude": 29.954184, "Longitude": -90.068375, "2015": "Yes", "2010": "Yes", "2000": "Yes", "1990": null, "Notes": null }, "geometry": { "type": "Point", "coordinates": [ -90.068375, 29.954184 ] } },
{ "type": "Feature", "properties": { "Name": "Donna's Bar & Grill", "Type": "Music Venue", "Address": "800 N. Rampart St.", "Latitude": 29.96139, "Longitude": -90.06755, "2015": null, "2010": "Yes", "2000": "Yes", "1990": null, "Notes": null }, "geometry": { "type": "Point", "coordinates": [ -90.06755, 29.96139 ] } },
{ "type": "Feature", "properties": { "Name": "Drago's", "Type": "Restaurant", "Address": "2 Poydras St.", "Latitude": 29.948208, "Longitude": -90.06398, "2015": "Yes", "2010": "Yes", "2000": null, "1990": null, "Notes": null }, "geometry": { "type": "Point", "coordinates": [ -90.06398, 29.948208 ] } },
{ "type": "Feature", "properties": { "Name": "Eleven 79", "Type": "Restaurant", "Address": "1179 Annunciation St.", "Latitude": 29.938845, "Longitude": -90.06852, "2015": "Yes", "2010": "Yes", "2000": null, "1990": null, "Notes": null }, "geometry": { "type": "Point", "coordinates": [ -90.06852, 29.938845 ] } },
{ "type": "Feature", "properties": { "Name": "El Gato Negro", "Type": "Restaurant", "Address": "81 French Market Pl.", "Latitude": 29.960846, "Longitude": -90.0584, "2015": null, "2010": "Yes", "2000": null, "1990": null, "Notes": null }, "geometry": { "type": "Point", "coordinates": [ -90.0584, 29.960846 ] } },
{ "type": "Feature", "properties": { "Name": "Elizabeth's", "Type": "Restaurant", "Address": "601 Gallier St.", "Latitude": 29.961555, "Longitude": -90.041115, "2015": "Yes", "2010": "Yes", "2000": null, "1990": null, "Notes": null }, "geometry": { "type": "Point", "coordinates": [ -90.041115, 29.961555 ] } },
{ "type": "Feature", "properties": { "Name": "Emeril's", "Type": "Restaurant", "Address": "800 Tchoupitoulas St.", "Latitude": 29.944809, "Longitude": -90.06745, "2015": "Yes", "2010": "Yes", "2000": "Yes", "1990": null, "Notes": null }, "geometry": { "type": "Point", "coordinates": [ -90.06745, 29.944809 ] } },
{ "type": "Feature", "properties": { "Name": "Emeril's Delmonico", "Type": "Restaurant", "Address": "1300 St. Charles Ave.", "Latitude": 29.94039, "Longitude": -90.07436, "2015": "Yes", "2010": "Yes", "2000": null, "1990": null, "Notes": null }, "geometry": { "type": "Point", "coordinates": [ -90.07436, 29.94039 ] } },
{ "type": "Feature", "properties": { "Name": "Ernst Cafe", "Type": "Bar", "Address": "600 S. Peters St.", "Latitude": 29.947145, "Longitude": -90.06587, "2015": "Yes", "2010": "Yes", "2000": null, "1990": null, "Notes": null }, "geometry": { "type": "Point", "coordinates": [ -90.06587, 29.947145 ] } },
{ "type": "Feature", "properties": { "Name": "F&M Patio Bar", "Type": "Bar", "Address": "4841 Tchoupitoulas St.", "Latitude": 29.916708, "Longitude": -90.106926, "2015": "Yes", "2010": "Yes", "2000": "Yes", "1990": null, "Notes": null }, "geometry": { "type": "Point", "coordinates": [ -90.106926, 29.916708 ] } },
{ "type": "Feature", "properties": { "Name": "Finn McCool's Irish Pub", "Type": "Bar", "Address": "3701 Banks St.", "Latitude": 29.969406, "Longitude": -90.09917, "2015": "Yes", "2010": "Yes", "2000": null, "1990": null, "Notes": null }, "geometry": { "type": "Point", "coordinates": [ -90.09917, 29.969406 ] } },
{ "type": "Feature", "properties": { "Name": "Fiorella's Cafe", "Type": "Restaurant", "Address": "45 French Market Pl.", "Latitude": 29.960325, "Longitude": -90.05898, "2015": null, "2010": "Yes", "2000": "Yes", "1990": null, "Notes": null }, "geometry": { "type": "Point", "coordinates": [ -90.05898, 29.960325 ] } },
{ "type": "Feature", "properties": { "Name": "Franky & Johnny's", "Type": "Restaurant", "Address": "321 Arabella St", "Latitude": 29.91685, "Longitude": -90.11917, "2015": null, "2010": "Yes", "2000": "Yes", "1990": null, "Notes": null }, "geometry": { "type": "Point", "coordinates": [ -90.11917, 29.91685 ] } },
{ "type": "Feature", "properties": { "Name": "French 75", "Type": "Bar", "Address": "813 Bienville St.", "Latitude": 29.95561, "Longitude": -90.06857, "2015": "Yes", "2010": "Yes", "2000": null, "1990": null, "Notes": null }, "geometry": { "type": "Point", "coordinates": [ -90.06857, 29.95561 ] } },
{ "type": "Feature", "properties": { "Name": "Fritzel's European Jazz Pub", "Type": "Music Venue", "Address": "733 Bourbon St", "Latitude": 29.959122, "Longitude": -90.06519, "2015": "Yes", "2010": "Yes", "2000": null, "1990": null, "Notes": null }, "geometry": { "type": "Point", "coordinates": [ -90.06519, 29.959122 ] } },
{ "type": "Feature", "properties": { "Name": "Galatoire's ", "Type": "Restaurant", "Address": "209 Bourbon St.", "Latitude": 29.954803, "Longitude": -90.06899, "2015": "Yes", "2010": "Yes", "2000": "Yes", "1990": "Yes", "Notes": null }, "geometry": { "type": "Point", "coordinates": [ -90.06899, 29.954803 ] } },
{ "type": "Feature", "properties": { "Name": "Golden Lantern", "Type": "Bar", "Address": "1239 Royal St.", "Latitude": 29.962303, "Longitude": -90.0609, "2015": "Yes", "2010": "Yes", "2000": "Yes", "1990": null, "Notes": null }, "geometry": { "type": "Point", "coordinates": [ -90.0609, 29.962303 ] } },
{ "type": "Feature", "properties": { "Name": "Good Friends", "Type": "Bar", "Address": "740 Dauphine St.", "Latitude": 29.95977, "Longitude": -90.06603, "2015": "Yes", "2010": "Yes", "2000": null, "1990": null, "Notes": null }, "geometry": { "type": "Point", "coordinates": [ -90.06603, 29.95977 ] } },
{ "type": "Feature", "properties": { "Name": "Grand Isle", "Type": "Restaurant", "Address": "575 Convention Center Blvd.", "Latitude": 29.947294, "Longitude": -90.06465, "2015": "Yes", "2010": "Yes", "2000": null, "1990": null, "Notes": null }, "geometry": { "type": "Point", "coordinates": [ -90.06465, 29.947294 ] } },
{ "type": "Feature", "properties": { "Name": "Gumbo Shop", "Type": "Restaurant", "Address": "630 St. Peter St.", "Latitude": 29.957954, "Longitude": -90.064705, "2015": "Yes", "2010": "Yes", "2000": null, "1990": "Yes", "Notes": null }, "geometry": { "type": "Point", "coordinates": [ -90.064705, 29.957954 ] } },
{ "type": "Feature", "properties": { "Name": "GW Fins", "Type": "Restaurant", "Address": "808 Bienville St.", "Latitude": 29.955582, "Longitude": -90.06856, "2015": "Yes", "2010": "Yes", "2000": null, "1990": null, "Notes": null }, "geometry": { "type": "Point", "coordinates": [ -90.06856, 29.955582 ] } },
{ "type": "Feature", "properties": { "Name": "Handsome WIlly's", "Type": "Bar", "Address": "218 S. Roberson St.", "Latitude": 29.95725, "Longitude": -90.07793, "2015": "Yes", "2010": "Yes", "2000": null, "1990": null, "Notes": null }, "geometry": { "type": "Point", "coordinates": [ -90.07793, 29.95725 ] } },
{ "type": "Feature", "properties": { "Name": "Herbsaint", "Type": "Restaurant", "Address": "701 St. Charles Ave.", "Latitude": 29.947231, "Longitude": -90.07129, "2015": "Yes", "2010": "Yes", "2000": null, "1990": null, "Notes": null }, "geometry": { "type": "Point", "coordinates": [ -90.07129, 29.947231 ] } },
{ "type": "Feature", "properties": { "Name": "House of Blues", "Type": "Music Venue", "Address": "225 Decatur St", "Latitude": 29.953003, "Longitude": -90.066086, "2015": "Yes", "2010": "Yes", "2000": "Yes", "1990": null, "Notes": null }, "geometry": { "type": "Point", "coordinates": [ -90.066086, 29.953003 ] } },
{ "type": "Feature", "properties": { "Name": "Howlin' Wolf", "Type": "Music Venue", "Address": "907 S. Peters St.", "Latitude": 29.942781, "Longitude": -90.065796, "2015": "Yes", "2010": "Yes", "2000": "Yes", "1990": null, "Notes": null }, "geometry": { "type": "Point", "coordinates": [ -90.065796, 29.942781 ] } },
{ "type": "Feature", "properties": { "Name": "Irene's Cuisine", "Type": "Restaurant", "Address": "539 St. Philip St.", "Latitude": 29.924404, "Longitude": -90.07379, "2015": "Yes", "2010": "Yes", "2000": "Yes", "1990": null, "Notes": null }, "geometry": { "type": "Point", "coordinates": [ -90.07379, 29.924404 ] } },
{ "type": "Feature", "properties": { "Name": "Iris", "Type": "Restaurant", "Address": "321 N. Peters St.", "Latitude": 29.95347, "Longitude": -90.06498, "2015": "Yes", "2010": "Yes", "2000": null, "1990": null, "Notes": null }, "geometry": { "type": "Point", "coordinates": [ -90.06498, 29.95347 ] } },
{ "type": "Feature", "properties": { "Name": "Jacques-Imo's Cafe", "Type": "Restaurant", "Address": "8324 Oak St.", "Latitude": 29.948954, "Longitude": -90.13179, "2015": "Yes", "2010": "Yes", "2000": null, "1990": null, "Notes": null }, "geometry": { "type": "Point", "coordinates": [ -90.13179, 29.948954 ] } },
{ "type": "Feature", "properties": { "Name": "Jimbeaux's ", "Type": "Music Venue", "Address": "623 Frenchmen St.", "Latitude": 29.963812, "Longitude": -90.057755, "2015": null, "2010": "Yes", "2000": null, "1990": null, "Notes": null }, "geometry": { "type": "Point", "coordinates": [ -90.057755, 29.963812 ] } },
{ "type": "Feature", "properties": { "Name": "Johnny's Po-boys", "Type": "Restaurant", "Address": "511 St. Louis St.", "Latitude": 29.955246, "Longitude": -90.0644, "2015": "Yes", "2010": "Yes", "2000": "Yes", "1990": null, "Notes": null }, "geometry": { "type": "Point", "coordinates": [ -90.0644, 29.955246 ] } },
{ "type": "Feature", "properties": { "Name": "K-Paul's Louisiana Kitchen", "Type": "Restaurant", "Address": "416 Chartres St.", "Latitude": 29.95522, "Longitude": -90.06578, "2015": "Yes", "2010": "Yes", "2000": "Yes", "1990": "Yes", "Notes": null }, "geometry": { "type": "Point", "coordinates": [ -90.06578, 29.95522 ] } },
{ "type": "Feature", "properties": { "Name": "Kerry Irish Pub", "Type": "Bar", "Address": "331 Decatur St.", "Latitude": 29.953854, "Longitude": -90.0654, "2015": "Yes", "2010": "Yes", "2000": null, "1990": null, "Notes": null }, "geometry": { "type": "Point", "coordinates": [ -90.0654, 29.953854 ] } },
{ "type": "Feature", "properties": { "Name": "Kyoto", "Type": "Restaurant", "Address": "4920 Prytania St.", "Latitude": 29.924559, "Longitude": -90.10804, "2015": null, "2010": "Yes", "2000": null, "1990": null, "Notes": null }, "geometry": { "type": "Point", "coordinates": [ -90.10804, 29.924559 ] } },
{ "type": "Feature", "properties": { "Name": "La Crepe Nanou", "Type": "Restaurant", "Address": "1410 Robert St.", "Latitude": 29.924713, "Longitude": -90.10889, "2015": "Yes", "2010": "Yes", "2000": "Yes", "1990": "Yes", "Notes": null }, "geometry": { "type": "Point", "coordinates": [ -90.10889, 29.924713 ] } },
{ "type": "Feature", "properties": { "Name": "La Madeleine", "Type": "Restaurant", "Address": "601 S. Carrollton Ave.", "Latitude": 29.943117, "Longitude": -90.13395, "2015": null, "2010": "Yes", "2000": "Yes", "1990": "Yes", "Notes": null }, "geometry": { "type": "Point", "coordinates": [ -90.13395, 29.943117 ] } },
{ "type": "Feature", "properties": { "Name": "La Petite Grocery", "Type": "Restaurant", "Address": "4238 Magazine St.", "Latitude": 29.92095, "Longitude": -90.09953, "2015": "Yes", "2010": "Yes", "2000": null, "1990": null, "Notes": null }, "geometry": { "type": "Point", "coordinates": [ -90.09953, 29.92095 ] } },
{ "type": "Feature", "properties": { "Name": "Lafitte's Blacksmith Shop", "Type": "Bar", "Address": "941 Bourbon St", "Latitude": 29.96061, "Longitude": -90.06387, "2015": "Yes", "2010": "Yes", "2000": "Yes", "1990": "Yes", "Notes": null }, "geometry": { "type": "Point", "coordinates": [ -90.06387, 29.96061 ] } },
{ "type": "Feature", "properties": { "Name": "Le Bon Temps Roule", "Type": "Music Venue", "Address": "4801 Magazine St.", "Latitude": 29.920395, "Longitude": -90.10618, "2015": "Yes", "2010": "Yes", "2000": null, "1990": null, "Notes": null }, "geometry": { "type": "Point", "coordinates": [ -90.10618, 29.920395 ] } },
{ "type": "Feature", "properties": { "Name": "Le Meritage", "Type": "Restaurant", "Address": "1001 Toulouse St.", "Latitude": 29.959076, "Longitude": -90.068214, "2015": null, "2010": "Yes", "2000": null, "1990": null, "Notes": null }, "geometry": { "type": "Point", "coordinates": [ -90.068214, 29.959076 ] } },
{ "type": "Feature", "properties": { "Name": "Lilette", "Type": "Restaurant", "Address": "3637 Magazine St.", "Latitude": 29.921824, "Longitude": -90.0926, "2015": "Yes", "2010": "Yes", "2000": null, "1990": null, "Notes": null }, "geometry": { "type": "Point", "coordinates": [ -90.0926, 29.921824 ] } },
{ "type": "Feature", "properties": { "Name": "Liuzza's by the Track", "Type": "Restaurant", "Address": "1518 N. Lopez St.", "Latitude": 29.979975, "Longitude": -90.083244, "2015": "Yes", "2010": "Yes", "2000": null, "1990": null, "Notes": null }, "geometry": { "type": "Point", "coordinates": [ -90.083244, 29.979975 ] } },
{ "type": "Feature", "properties": { "Name": "Loa", "Type": "Bar", "Address": "221 Camp St.", "Latitude": 29.95163, "Longitude": -90.06863, "2015": "Yes", "2010": "Yes", "2000": null, "1990": null, "Notes": null }, "geometry": { "type": "Point", "coordinates": [ -90.06863, 29.95163 ] } },
{ "type": "Feature", "properties": { "Name": "Lucy's Retired Surfer Bar & Restaurant", "Type": "Bar", "Address": "701 Tchoupitoulas St.", "Latitude": 29.946396, "Longitude": -90.067375, "2015": null, "2010": "Yes", "2000": null, "1990": null, "Notes": null }, "geometry": { "type": "Point", "coordinates": [ -90.067375, 29.946396 ] } },
{ "type": "Feature", "properties": { "Name": "Luke", "Type": "Restaurant", "Address": "333 St. Charles Ave.", "Latitude": 29.951159, "Longitude": -90.07002, "2015": null, "2010": "Yes", "2000": null, "1990": null, "Notes": "Add umlaut" }, "geometry": { "type": "Point", "coordinates": [ -90.07002, 29.951159 ] } },
{ "type": "Feature", "properties": { "Name": "Mandina's ", "Type": "Restaurant", "Address": "3800 Canal St.", "Latitude": 29.97253, "Longitude": -90.09772, "2015": "Yes", "2010": "Yes", "2000": "Yes", "1990": null, "Notes": null }, "geometry": { "type": "Point", "coordinates": [ -90.09772, 29.97253 ] } },
{ "type": "Feature", "properties": { "Name": "Maple Leaf", "Type": "Music Venue", "Address": "8316 Oak St.", "Latitude": 29.948908, "Longitude": -90.13173, "2015": "Yes", "2010": "Yes", "2000": "Yes", "1990": "Yes", "Notes": null }, "geometry": { "type": "Point", "coordinates": [ -90.13173, 29.948908 ] } },
{ "type": "Feature", "properties": { "Name": "Margaritaville Cafe", "Type": "Music Venue", "Address": "1104 Decatur St.", "Latitude": 29.959982, "Longitude": -90.05985, "2015": "Yes", "2010": "Yes", "2000": "Yes", "1990": null, "Notes": null }, "geometry": { "type": "Point", "coordinates": [ -90.05985, 29.959982 ] } },
{ "type": "Feature", "properties": { "Name": "Martinique Bistro", "Type": "Restaurant", "Address": "5908 Magazine St.", "Latitude": 29.92178, "Longitude": -90.12015, "2015": "Yes", "2010": "Yes", "2000": "Yes", "1990": null, "Notes": null }, "geometry": { "type": "Point", "coordinates": [ -90.12015, 29.92178 ] } },
{ "type": "Feature", "properties": { "Name": "MiLa", "Type": "Restaurant", "Address": "817 Common St", "Latitude": 29.952917, "Longitude": -90.071106, "2015": "Yes", "2010": "Yes", "2000": null, "1990": null, "Notes": null }, "geometry": { "type": "Point", "coordinates": [ -90.071106, 29.952917 ] } },
{ "type": "Feature", "properties": { "Name": "Mimi's", "Type": "Bar", "Address": "2601 Royal St.", "Latitude": 29.964886, "Longitude": -90.0513, "2015": "Yes", "2010": "Yes", "2000": null, "1990": null, "Notes": null }, "geometry": { "type": "Point", "coordinates": [ -90.0513, 29.964886 ] } },
{ "type": "Feature", "properties": { "Name": "Molly's at the Market", "Type": "Bar", "Address": "1107 Decatur St.", "Latitude": 29.960003, "Longitude": -90.05985, "2015": "Yes", "2010": "Yes", "2000": null, "1990": null, "Notes": null }, "geometry": { "type": "Point", "coordinates": [ -90.05985, 29.960003 ] } },
{ "type": "Feature", "properties": { "Name": "Mona's Cafe & Deli", "Type": "Restaurant", "Address": "504 Frenchmen St", "Latitude": 29.962677, "Longitude": -90.05767, "2015": null, "2010": "Yes", "2000": null, "1990": null, "Notes": null }, "geometry": { "type": "Point", "coordinates": [ -90.05767, 29.962677 ] } },
{ "type": "Feature", "properties": { "Name": "Mona Lisa", "Type": "Restaurant", "Address": "1212 Royal St.", "Latitude": 29.962122, "Longitude": -90.061035, "2015": null, "2010": "Yes", "2000": null, "1990": null, "Notes": null }, "geometry": { "type": "Point", "coordinates": [ -90.061035, 29.962122 ] } },
{ "type": "Feature", "properties": { "Name": "Mother's", "Type": "Restaurant", "Address": "401 Poydras St.", "Latitude": 29.948883, "Longitude": -90.06702, "2015": "Yes", "2010": "Yes", "2000": "Yes", "1990": null, "Notes": null }, "geometry": { "type": "Point", "coordinates": [ -90.06702, 29.948883 ] } },
{ "type": "Feature", "properties": { "Name": "Mr. B's Bistro", "Type": "Restaurant", "Address": "201 Royal St.", "Latitude": 29.954119, "Longitude": -90.06813, "2015": "Yes", "2010": "Yes", "2000": "Yes", "1990": "Yes", "Notes": null }, "geometry": { "type": "Point", "coordinates": [ -90.06813, 29.954119 ] } },
{ "type": "Feature", "properties": { "Name": "Mulate's", "Type": "Music Venue", "Address": "201 Julia St", "Latitude": 29.944288, "Longitude": -90.06458, "2015": "Yes", "2010": "Yes", "2000": "Yes", "1990": null, "Notes": null }, "geometry": { "type": "Point", "coordinates": [ -90.06458, 29.944288 ] } },
{ "type": "Feature", "properties": { "Name": "Muriel's Jackson Square", "Type": "Restaurant", "Address": "801 Chartres St.", "Latitude": 29.958267, "Longitude": -90.06301, "2015": "Yes", "2010": "Yes", "2000": null, "1990": null, "Notes": null }, "geometry": { "type": "Point", "coordinates": [ -90.06301, 29.958267 ] } },
{ "type": "Feature", "properties": { "Name": "Napoleon House Bar and Cafe", "Type": "Restaurant", "Address": "500 Chartres St", "Latitude": 29.955877, "Longitude": -90.06519, "2015": "Yes", "2010": "Yes", "2000": "Yes", "1990": "Yes", "Notes": null }, "geometry": { "type": "Point", "coordinates": [ -90.06519, 29.955877 ] } },
{ "type": "Feature", "properties": { "Name": "Napoleon's Itch", "Type": "Bar", "Address": "734 Bourbon St.", "Latitude": 29.958748, "Longitude": -90.06551, "2015": "Yes", "2010": "Yes", "2000": null, "1990": null, "Notes": null }, "geometry": { "type": "Point", "coordinates": [ -90.06551, 29.958748 ] } },
{ "type": "Feature", "properties": { "Name": "Ninth Circle", "Type": "Bar", "Address": "700 N. Rampart St.", "Latitude": 29.96048, "Longitude": -90.06836, "2015": null, "2010": "Yes", "2000": null, "1990": null, "Notes": null }, "geometry": { "type": "Point", "coordinates": [ -90.06836, 29.96048 ] } },
{ "type": "Feature", "properties": { "Name": "Nola", "Type": "Restaurant", "Address": "534 St. Louis St.", "Latitude": 29.95538, "Longitude": -90.06461, "2015": "Yes", "2010": "Yes", "2000": "Yes", "1990": null, "Notes": null }, "geometry": { "type": "Point", "coordinates": [ -90.06461, 29.95538 ] } },
{ "type": "Feature", "properties": { "Name": "Old Absinthe House", "Type": "Bar", "Address": "240 Bourbon St.", "Latitude": 29.955023, "Longitude": -90.0688, "2015": "Yes", "2010": "Yes", "2000": "Yes", "1990": "Yes", "Notes": null }, "geometry": { "type": "Point", "coordinates": [ -90.0688, 29.955023 ] } },
{ "type": "Feature", "properties": { "Name": "ONE", "Type": "Restaurant", "Address": "8132 Hampson St", "Latitude": 29.944147, "Longitude": -90.133804, "2015": "Yes", "2010": "Yes", "2000": null, "1990": null, "Notes": null }, "geometry": { "type": "Point", "coordinates": [ -90.133804, 29.944147 ] } },
{ "type": "Feature", "properties": { "Name": "One Eyed Jack's", "Type": "Music Venue", "Address": "615 Toulouse St.", "Latitude": 29.956745, "Longitude": -90.06472, "2015": "Yes", "2010": "Yes", "2000": null, "1990": null, "Notes": null }, "geometry": { "type": "Point", "coordinates": [ -90.06472, 29.956745 ] } },
{ "type": "Feature", "properties": { "Name": "Oz", "Type": "Bar", "Address": "800 Bourbon St", "Latitude": 29.959541, "Longitude": -90.06479, "2015": "Yes", "2010": "Yes", "2000": "Yes", "1990": null, "Notes": null }, "geometry": { "type": "Point", "coordinates": [ -90.06479, 29.959541 ] } },
{ "type": "Feature", "properties": { "Name": "Pal's", "Type": "Bar", "Address": "949 N. Rendon St.", "Latitude": 29.97632, "Longitude": -90.086624, "2015": "Yes", "2010": "Yes", "2000": null, "1990": null, "Notes": null }, "geometry": { "type": "Point", "coordinates": [ -90.086624, 29.97632 ] } },
{ "type": "Feature", "properties": { "Name": "Palace Cafe", "Type": "Restaurant", "Address": "605 Canal St.", "Latitude": 29.952715, "Longitude": -90.06814, "2015": "Yes", "2010": "Yes", "2000": "Yes", "1990": null, "Notes": null }, "geometry": { "type": "Point", "coordinates": [ -90.06814, 29.952715 ] } },
{ "type": "Feature", "properties": { "Name": "Palm Court Jazz Cafe", "Type": "Music Venue", "Address": "1204 Decatur St.", "Latitude": 29.960762, "Longitude": -90.059166, "2015": "Yes", "2010": "Yes", "2000": "Yes", "1990": null, "Notes": null }, "geometry": { "type": "Point", "coordinates": [ -90.059166, 29.960762 ] } },
{ "type": "Feature", "properties": { "Name": "Parade Disco", "Type": "Bar", "Address": "801 Bourbon St", "Latitude": 29.959547, "Longitude": -90.0648, "2015": "Yes", "2010": "Yes", "2000": "Yes", "1990": null, "Notes": null }, "geometry": { "type": "Point", "coordinates": [ -90.0648, 29.959547 ] } },
{ "type": "Feature", "properties": { "Name": "Parasol's Restaurant & Bar", "Type": "Restaurant", "Address": "2533 Constance St.", "Latitude": 29.926594, "Longitude": -90.07966, "2015": "Yes", "2010": "Yes", "2000": null, "1990": null, "Notes": null }, "geometry": { "type": "Point", "coordinates": [ -90.07966, 29.926594 ] } },
{ "type": "Feature", "properties": { "Name": "Parkway Bakery & Tavern", "Type": "Restaurant", "Address": "538 Hagan Ave.", "Latitude": 29.973364, "Longitude": -90.09069, "2015": "Yes", "2010": "Yes", "2000": null, "1990": null, "Notes": null }, "geometry": { "type": "Point", "coordinates": [ -90.09069, 29.973364 ] } },
{ "type": "Feature", "properties": { "Name": "Pascal's Manale", "Type": "Restaurant", "Address": "1838 Napoleon Ave.", "Latitude": 29.928896, "Longitude": -90.10247, "2015": "Yes", "2010": "Yes", "2000": "Yes", "1990": "Yes", "Notes": null }, "geometry": { "type": "Point", "coordinates": [ -90.10247, 29.928896 ] } },
{ "type": "Feature", "properties": { "Name": "Pat O'Brien's", "Type": "Bar", "Address": "718 St. Peter St.", "Latitude": 29.958122, "Longitude": -90.064964, "2015": "Yes", "2010": "Yes", "2000": "Yes", "1990": null, "Notes": null }, "geometry": { "type": "Point", "coordinates": [ -90.064964, 29.958122 ] } },
{ "type": "Feature", "properties": { "Name": "Pelican Club", "Type": "Restaurant", "Address": "312 Exchange Pl.", "Latitude": 29.954681, "Longitude": -90.0669, "2015": "Yes", "2010": "Yes", "2000": "Yes", "1990": null, "Notes": null }, "geometry": { "type": "Point", "coordinates": [ -90.0669, 29.954681 ] } },
{ "type": "Feature", "properties": { "Name": "P.J.'s Coffee & Tea Cafe", "Type": "Coffee Shop", "Address": "7624 Maple St.", "Latitude": 29.941399, "Longitude": -90.12894, "2015": null, "2010": "Yes", "2000": "Yes", "1990": null, "Notes": null }, "geometry": { "type": "Point", "coordinates": [ -90.12894, 29.941399 ] } },
{ "type": "Feature", "properties": { "Name": "P.J's Coffee & Tea Cafe", "Type": "Coffee Shop", "Address": "5432 Magazine St.", "Latitude": 29.920973, "Longitude": -90.11539, "2015": null, "2010": "Yes", "2000": null, "1990": "Yes", "Notes": null }, "geometry": { "type": "Point", "coordinates": [ -90.11539, 29.920973 ] } },
{ "type": "Feature", "properties": { "Name": "P.J's Coffee & Tea Cafe", "Type": "Coffee Shop", "Address": "644 Camp St.", "Latitude": 29.947287, "Longitude": -90.06993, "2015": null, "2010": "Yes", "2000": "Yes", "1990": null, "Notes": null }, "geometry": { "type": "Point", "coordinates": [ -90.06993, 29.947287 ] } },
{ "type": "Feature", "properties": { "Name": "Port of Call", "Type": "Restaurant", "Address": "838 Esplanade Ave.", "Latitude": 29.964207, "Longitude": -90.06124, "2015": "Yes", "2010": "Yes", "2000": null, "1990": null, "Notes": null }, "geometry": { "type": "Point", "coordinates": [ -90.06124, 29.964207 ] } },
{ "type": "Feature", "properties": { "Name": "Praline Connection", "Type": "Restaurant", "Address": "542 Frenchmen St.", "Latitude": 29.962997, "Longitude": -90.0577, "2015": "Yes", "2010": "Yes", "2000": "Yes", "1990": null, "Notes": null }, "geometry": { "type": "Point", "coordinates": [ -90.0577, 29.962997 ] } },
{ "type": "Feature", "properties": { "Name": "Pravda", "Type": "Bar", "Address": "1113 Decatur St.", "Latitude": 29.960043, "Longitude": -90.059814, "2015": null, "2010": "Yes", "2000": null, "1990": null, "Notes": "\"The beautiful back garden, surprising in its openness after the warmth and intimacy of the bar space, is said to be a reenactment of the primitivist spirit behind fantasies of collectivist social organization.\"" }, "geometry": { "type": "Point", "coordinates": [ -90.059814, 29.960043 ] } },
{ "type": "Feature", "properties": { "Name": "Preservation Hall", "Type": "Music Venue", "Address": "726 St. Peter St.", "Latitude": 29.958162, "Longitude": -90.065025, "2015": "Yes", "2010": "Yes", "2000": "Yes", "1990": "Yes", "Notes": null }, "geometry": { "type": "Point", "coordinates": [ -90.065025, 29.958162 ] } },
{ "type": "Feature", "properties": { "Name": "R Bar", "Type": "Bar", "Address": "1341 Royal St.", "Latitude": 29.963005, "Longitude": -90.06028, "2015": "Yes", "2010": "Yes", "2000": null, "1990": null, "Notes": null }, "geometry": { "type": "Point", "coordinates": [ -90.06028, 29.963005 ] } },
{ "type": "Feature", "properties": { "Name": "Ralph's on the Park", "Type": "Restaurant", "Address": "900 City Park Ave.", "Latitude": 29.983585, "Longitude": -90.09808, "2015": "Yes", "2010": "Yes", "2000": null, "1990": null, "Notes": null }, "geometry": { "type": "Point", "coordinates": [ -90.09808, 29.983585 ] } },
{ "type": "Feature", "properties": { "Name": "Rawhide", "Type": "Bar", "Address": "740 Burgundy St.", "Latitude": 29.960424, "Longitude": -90.06691, "2015": null, "2010": "Yes", "2000": "Yes", "1990": null, "Notes": null }, "geometry": { "type": "Point", "coordinates": [ -90.06691, 29.960424 ] } },
{ "type": "Feature", "properties": { "Name": "Remoulade", "Type": "Restaurant", "Address": "309 Bourbon St.", "Latitude": 29.955614, "Longitude": -90.06832, "2015": "Yes", "2010": "Yes", "2000": "Yes", "1990": null, "Notes": null }, "geometry": { "type": "Point", "coordinates": [ -90.06832, 29.955614 ] } },
{ "type": "Feature", "properties": { "Name": "Republic", "Type": "Music Venue", "Address": "828 S. Peters St.", "Latitude": 29.944052, "Longitude": -90.06581, "2015": "Yes", "2010": "Yes", "2000": null, "1990": null, "Notes": null }, "geometry": { "type": "Point", "coordinates": [ -90.06581, 29.944052 ] } },
{ "type": "Feature", "properties": { "Name": "Rio Mar", "Type": "Restaurant", "Address": "800 S. Peters St", "Latitude": 29.944447, "Longitude": -90.06582, "2015": "Yes", "2010": "Yes", "2000": null, "1990": null, "Notes": null }, "geometry": { "type": "Point", "coordinates": [ -90.06582, 29.944447 ] } },
{ "type": "Feature", "properties": { "Name": "Rock 'n' Bowl", "Type": "Music Venue", "Address": "3000 S. Carrollton St.", "Latitude": 29.9611, "Longitude": -90.1161, "2015": "Yes", "2010": "Yes", "2000": null, "1990": null, "Notes": null }, "geometry": { "type": "Point", "coordinates": [ -90.11583, 29.960365 ] } },
{ "type": "Feature", "properties": { "Name": "Royal Cafe", "Type": "Restaurant", "Address": "706 Royal St.", "Latitude": 29.958187, "Longitude": -90.06455, "2015": null, "2010": "Yes", "2000": null, "1990": null, "Notes": null }, "geometry": { "type": "Point", "coordinates": [ -90.06455, 29.958187 ] } },
{ "type": "Feature", "properties": { "Name": "Rubyfruit Jungle", "Type": "Bar", "Address": "1135 Decatur St.", "Latitude": 29.96019, "Longitude": -90.059685, "2015": null, "2010": "Yes", "2000": null, "1990": null, "Notes": null }, "geometry": { "type": "Point", "coordinates": [ -90.059685, 29.96019 ] } },
{ "type": "Feature", "properties": { "Name": "Rue de la Course", "Type": "Coffee Shop", "Address": "3121 Magazine St.", "Latitude": 29.924206, "Longitude": -90.08605, "2015": null, "2010": "Yes", "2000": null, "1990": null, "Notes": null }, "geometry": { "type": "Point", "coordinates": [ -90.08605, 29.924206 ] } },
{ "type": "Feature", "properties": { "Name": "Rue de la Course", "Type": "Coffee Shop", "Address": "1140 S. Carrollton Ave.", "Latitude": 29.946945, "Longitude": -90.130226, "2015": null, "2010": "Yes", "2000": null, "1990": null, "Notes": null }, "geometry": { "type": "Point", "coordinates": [ -90.130226, 29.946945 ] } },
{ "type": "Feature", "properties": { "Name": "Sazerac Bar", "Type": "Bar", "Address": "123 Baronne St", "Latitude": 29.954039, "Longitude": -90.07124, "2015": null, "2010": "Yes", "2000": "Yes", "1990": null, "Notes": null }, "geometry": { "type": "Point", "coordinates": [ -90.07124, 29.954039 ] } },
{ "type": "Feature", "properties": { "Name": "Snug Harbor", "Type": "Music Venue", "Address": "626 Frenchmen St.", "Latitude": 29.963844, "Longitude": -90.05777, "2015": "Yes", "2010": "Yes", "2000": "Yes", "1990": "Yes", "Notes": null }, "geometry": { "type": "Point", "coordinates": [ -90.05777, 29.963844 ] } },
{ "type": "Feature", "properties": { "Name": "St. Joe's", "Type": "Bar", "Address": "5535 Magazine St.", "Latitude": 29.921127, "Longitude": -90.11641, "2015": "Yes", "2010": "Yes", "2000": null, "1990": null, "Notes": null }, "geometry": { "type": "Point", "coordinates": [ -90.11641, 29.921127 ] } },
{ "type": "Feature", "properties": { "Name": "Stella!", "Type": "Restaurant", "Address": "1032 Chartres St.", "Latitude": 29.960104, "Longitude": -90.06142, "2015": "Yes", "2010": "Yes", "2000": null, "1990": null, "Notes": null }, "geometry": { "type": "Point", "coordinates": [ -90.06142, 29.960104 ] } },
{ "type": "Feature", "properties": { "Name": "Sukho Thai", "Type": "Restaurant", "Address": "1913 Royal St.", "Latitude": 29.964153, "Longitude": -90.059235, "2015": "Yes", "2010": "Yes", "2000": null, "1990": null, "Notes": null }, "geometry": { "type": "Point", "coordinates": [ -90.059235, 29.964153 ] } },
{ "type": "Feature", "properties": { "Name": "The Bulldog", "Type": "Bar", "Address": "3236 Magazine St.", "Latitude": 29.9236, "Longitude": -90.0873, "2015": "Yes", "2010": "Yes", "2000": null, "1990": null, "Notes": null }, "geometry": { "type": "Point", "coordinates": [ -90.0873, 29.9236 ] } },
{ "type": "Feature", "properties": { "Name": "The Dungeon", "Type": "Bar", "Address": "738 Toulouse St.", "Latitude": 29.957458, "Longitude": -90.06581, "2015": null, "2010": "Yes", "2000": null, "1990": null, "Notes": null }, "geometry": { "type": "Point", "coordinates": [ -90.06581, 29.957458 ] } },
{ "type": "Feature", "properties": { "Name": "The Grill Room", "Type": "Restaurant", "Address": "300 Gravier St.", "Latitude": 29.949831, "Longitude": -90.06596, "2015": "Yes", "2010": "Yes", "2000": null, "1990": null, "Notes": null }, "geometry": { "type": "Point", "coordinates": [ -90.06596, 29.949831 ] } },
{ "type": "Feature", "properties": { "Name": "The Joint", "Type": "Restaurant", "Address": "701 Mazant St.", "Latitude": 29.961344, "Longitude": -90.03566, "2015": "Yes", "2010": "Yes", "2000": null, "1990": null, "Notes": null }, "geometry": { "type": "Point", "coordinates": [ -90.03566, 29.961344 ] } },
{ "type": "Feature", "properties": { "Name": "The Kingpin", "Type": "Bar", "Address": "1307 Lyons St.", "Latitude": 29.923983, "Longitude": -90.10757, "2015": "Yes", "2010": "Yes", "2000": null, "1990": null, "Notes": null }, "geometry": { "type": "Point", "coordinates": [ -90.10757, 29.923983 ] } },
{ "type": "Feature", "properties": { "Name": "Tipitina's", "Type": "Music Venue", "Address": "501 Napoleon Ave.", "Latitude": 29.917213, "Longitude": -90.10096, "2015": "Yes", "2010": "Yes", "2000": "Yes", "1990": "Yes", "Notes": null }, "geometry": { "type": "Point", "coordinates": [ -90.10096, 29.917213 ] } },
{ "type": "Feature", "properties": { "Name": "Tommy's Cuisine", "Type": "Restaurant", "Address": "746 Tchoupitoulas St.", "Latitude": 29.945475, "Longitude": -90.067406, "2015": "Yes", "2010": "Yes", "2000": null, "1990": null, "Notes": null }, "geometry": { "type": "Point", "coordinates": [ -90.067406, 29.945475 ] } },
{ "type": "Feature", "properties": { "Name": "Two Sister's Kitchen", "Type": "Restaurant", "Address": "223 N. Derbigny St.", "Latitude": 29.960865, "Longitude": -90.07774, "2015": null, "2010": "Yes", "2000": null, "1990": null, "Notes": "Check apostrophe" }, "geometry": { "type": "Point", "coordinates": [ -90.07774, 29.960865 ] } },
{ "type": "Feature", "properties": { "Name": "Vaughan's", "Type": "Bar", "Address": "800 Lesseps St.", "Latitude": 29.961895, "Longitude": -90.03349, "2015": "Yes", "2010": "Yes", "2000": null, "1990": null, "Notes": null }, "geometry": { "type": "Point", "coordinates": [ -90.03349, 29.961895 ] } },
{ "type": "Feature", "properties": { "Name": "Vic's Kangaroo Cafe", "Type": "Bar", "Address": "636 Tchoupitoulas St.", "Latitude": 29.94711, "Longitude": -90.06727, "2015": null, "2010": "Yes", "2000": "Yes", "1990": null, "Notes": null }, "geometry": { "type": "Point", "coordinates": [ -90.06727, 29.94711 ] } },
{ "type": "Feature", "properties": { "Name": "Wolfe's in the Warehouse", "Type": "Restaurant", "Address": "859 Convention Center Blvd.", "Latitude": 29.943178, "Longitude": -90.06447, "2015": null, "2010": "Yes", "2000": null, "1990": null, "Notes": null }, "geometry": { "type": "Point", "coordinates": [ -90.06447, 29.943178 ] } },
{ "type": "Feature", "properties": { "Name": "Ye Olde College Inn", "Type": "Restaurant", "Address": "3000 S. Carrollton Ave.", "Latitude": 29.960365, "Longitude": -90.11583, "2015": "Yes", "2010": "Yes", "2000": null, "1990": null, "Notes": null }, "geometry": { "type": "Point", "coordinates": [ -90.11583, 29.960365 ] } }
]
}
